Module,Week,StartDate,EndDate,RecipientFirstName,RecipientLastName,RecipientEmail,Status,Progress,Finished,Duration (in seconds),LocationLatitude,LocationLongitude
HTN,5,2019-01-02 01:08:17,2019-01-02 01:21:34,Lizzy,Williams,lizzyawilliams1@gmail.com,0,100,1,796,41.481597900390625,-81.7017974853515625
HTN,5,2019-01-09 01:24:34,2019-01-09 01:37:53,Mary Alice,Saunders,msaunders@ursuline.edu,0,100,1,798,42.3883056640625,-83.19370269775390625
HTN,5,2019-01-22 01:08:22,2019-01-22 01:21:51,Yvonne,Jackson,2163267554@myboostmobile.com,0,100,1,809,42.3661041259765625,-83.1421966552734375
HTN,5,2019-01-30 23:42:23,2019-01-31 00:05:47,Frances,Blount,fhb731@aol.com,0,100,1,1403,41.501007080078125,-81.46939849853515625
HTN,5,2019-02-04 11:11:25,2019-02-04 11:24:38,Jerome,Lynch,jtlynch1@yahoo.com,0,100,1,792,41.1024932861328125,-81.53859710693359375
HTN,5,2019-04-05 17:40:45,2019-04-05 17:54:10,Ruby,Carlisle,rcarlisle1941@hotmail.com,0,100,1,804,41.3896942138671875,-81.73509979248046875
HTN,5,2019-05-15 12:28:33,2019-05-15 12:41:42,Paul,Carlisle,pcarlisle80@gmail.com,0,100,1,788,41.534393310546875,-81.53189849853515625
HTN,5,2019-05-17 15:03:36,2019-05-17 15:54:03,Chapmen,Snowden,chapman25cs@gmail.com,0,100,1,3026,41.5052947998046875,-81.55660247802734375
