Module,Week,StartDate,EndDate,RecipientFirstName,RecipientLastName,RecipientEmail,Status,Progress,Finished,Duration (in seconds),LocationLatitude,LocationLongitude
HTN,2,2018-12-08 18:33:34,2018-12-08 18:48:30,Lizzy,Williams,lizzyawilliams1@gmail.com,0,100,1,895,41.481597900390625,-81.7017974853515625
HTN,2,2019-01-01 18:01:08,2019-01-08 01:37:52,Yvonne,Jackson,2163267554@myboostmobile.com,0,100,1,545804,42.3661041259765625,-83.1421966552734375
HTN,2,2019-01-08 22:29:40,2019-01-08 22:45:53,Mary Alice,Saunders,msaunders@ursuline.edu,0,100,1,973,42.3883056640625,-83.19370269775390625
HTN,2,2019-01-10 12:08:39,2019-01-10 12:24:52,Jerome,Lynch,jtlynch1@yahoo.com,0,100,1,972,40.4608001708984375,-80.03479766845703125
HTN,2,2019-01-28 23:00:05,2019-01-28 23:16:15,Frances,Blount,fhb731@aol.com,0,100,1,970,41.501007080078125,-81.46939849853515625
HTN,2,2019-02-26 17:50:26,2019-02-26 18:06:41,Ruby,Carlisle,rcarlisle1941@hotmail.com,0,100,1,974,41.450897216796875,-81.6190032958984375
HTN,2,2019-03-25 13:37:18,2019-03-25 13:56:18,Chapmen,Snowden,chapman25cs@gmail.com,0,100,1,1140,42.231597900390625,-83.265899658203125
HTN,2,2019-03-21 15:43:44,2019-03-21 15:48:08,Kelvin,Ross,kelvinross729@yahoo.com,0,30,0,264,,
HTN,2,2019-04-08 19:46:09,2019-04-13 16:21:26,Paul,Carlisle,pcarlisle80@gmail.com,0,100,1,419716,41.5276947021484375,-81.5323028564453125
