Module,Week,StartDate,EndDate,RecipientFirstName,RecipientLastName,RecipientEmail,Status,Progress,Finished,Duration (in seconds),LocationLatitude,LocationLongitude
PPT,5,2019-02-03 00:43:32,2019-02-03 00:51:39,Mary Alice,Saunders,msaunders@ursuline.edu,0,100,1,487,41.50079345703125,-81.55159759521484375
PPT,5,2019-02-12 01:45:48,2019-02-12 01:51:22,Lizzy,Williams,lizzyawilliams1@gmail.com,0,100,1,333,41.5063934326171875,-81.6743011474609375
PPT,5,2019-02-26 15:31:04,2019-02-26 15:36:49,Evonne,Jackson,2163267554@myboostmobile.com,0,100,1,344,42.394500732421875,-83.24539947509765625
PPT,5,2019-03-06 02:22:41,2019-03-06 02:28:13,Frances,Blount,fhb731@aol.com,0,100,1,332,41.4951019287109375,-81.4656982421875
PPT,5,2019-03-08 21:23:05,2019-03-08 21:28:50,Evonne,Jackson,2163267554@myboostmobile.com,0,100,1,345,40.08099365234375,-82.93830108642578125
PPT,5,2019-03-12 14:19:45,2019-03-12 16:08:02,Lizzy,Williams,lizzyawilliams1@gmail.com,0,100,1,6496,42.398193359375,-82.99250030517578125
PPT,5,2019-03-21 19:14:27,2019-03-21 19:20:52,Evonne,Jackson,2163267554@myboostmobile.com,0,100,1,384,42.3883056640625,-83.19370269775390625
PPT,5,2019-05-11 19:49:15,2019-05-11 19:57:35,Paul,Carlisle,pcarlisle80@gmail.com,0,100,1,500,41.5276947021484375,-81.5323028564453125
PPT,5,2019-05-17 15:04:24,2019-05-17 15:26:29,Chapmen,Snowden,chapman25cs@gmail.com,0,100,1,1325,41.5052947998046875,-81.55660247802734375
